iso3: bgd
codab:
  hdx_resource_name: bgd_adm_bbs_20201113_SHP.zip
  layer_base_name: bgd_adm_bbs_20201113_SHP/bgd_admbnda_adm{admin_level}_bbs_20201113.shp
  admin_level_max: 4
glofas:
  reporting_points:
  - name: Bahadurabad
    lon: 89.65
    lat: 25.15
  - name: Bhairab Bazar
    lon: 90.95
    lat: 24.05
  - name: Hardinge Bridge
    lon: 89.05
    lat: 24.05
  - name: Jariajanjail
    lon: 90.65
    lat: 24.95
  - name: Kanaighat
    lon: 92.15
    lat: 25.05
  - name: Kaunia
    lon: 89.45
    lat: 25.75
  - name: Laurergarh Saktiarkhola
    lon: 91.25
    lat: 25.15
  - name: Na
    lon: 89.75
    lat: 25.55
  - name: Sherpur
    lon: 91.65
    lat: 24.65
  - name: Sunamganj
    lon: 91.45
    lat: 25.05
  - name: Noonkhawa
    lat: 25.919
    lon: 89.7700
  - name: Dalia
    lat: 26.176
    lon: 89.0499
  - name: Panchagarh
    lat: 26.3311
    lon: 88.5541
  - name: Dinajpur
    lat: 25.6164
    lon: 88.6200
  - name: Kurigram
    lat: 25.8199
    lon: 89.6700
  - name: Badarganj
    lat: 25.6824
    lon: 89.0761
  - name: Pankha
    lat: 24.6411
    lon: 88.1583
  - name: Rohanpur
    lat: 24.8234
    lon: 88.3190
  - name: Nakuagaon
    lat: 25.190
    lon: 90.2160
  - name: Durgapur
    lat: 25.112
    lon: 90.6691
  - name: Sarighat
    lat: 25.0935
    lon: 92.1180
  - name: Amalshid
    lat: 24.872
    lon: 92.4856
  - name: Manu-RB
    lat: 24.4940
    lon: 91.7739
  - name: Lourergorh
    lat: 25.1917
    lon: 91.2511
  - name: Comilla
    lat: 23.4704
    lon: 91.2027
  - name: Faridpur
    lat: 23.6034
    lon: 89.8293
  - name: Gaibandha
    lat: 25.3384
    lon: 89.5480
  - name: Goalando
    lat: 23.76775
    lon: 89.77873
  - name: Khushiyara Amalshid
    lat: 24.85
    lon: 92.45
  - name: Sari-Gowain Sarighat
    lat: 25.1500
    lon: 92.1500
  - name: Someswari Durgapur
    lat: 25.1500
    lon: 90.6500
  - name: Bhugai Nakuagaon
    lat: 25.25
    lon: 90.2500
  - name: Jadukata Lorergorh
    lat: 25.1500
    lon: 91.2500
  - name: Khowai Shaestaganj
    lat: 24.2500
    lon: 91.45000
  - name: Manu Manu RB
    lat: 24.3500
    lon: 91.9500
  - name: Gumti Comilla
    lat: 23.4500
    lon: 91.15
  - name: Meghna Bhairab Bazar
    lat: 24.04
    lon: 90.99
  - name: Brahmaputra-Jamuna Bahadurabad
    lat: 25.11
    lon: 89.67
  - name: Brahmaputra-Jamuna Noonkhawa
    lat: 25.8500
    lon: 89.8500
  - name: Dharla Kurigram
    lat: 25.8500
    lon: 89.6500
  - name: Dudkumar Pateswari
    lat: 25.95
    lon: 89.75
  - name: Karatoa-Atrai-GGH Panchgarh
    lat: 26.2500
    lon: 88.6500
  - name: Jamuneswari Badarganj
    lat: 25.65
    lon: 89.05
  - name: Teesta Dalia
    lat: 26.1500
    lon: 89.0500
  - name: Ganges Pankha
    lat: 24.6500
    lon: 88.0500
  - name: Ganges Hardinge bridge
    lat: 24.06
    lon: 89.03
  - name: Mahananda Rohanpur
    lat: 24.8500
    lon: 88.2500
  - name: Punarbhaba Dinajpur
    lat: 25.5500
    lon: 88.5500
  - name: Mawa
    lat: 23.47216
    lon: 90.25666
